[
	{
		"name": "Клиника репродуктивного здоровья и Вспомогательных Репродуктивных Технологий",
		"address": "Улица Юнусалиева 300",
		"lat": 42.824929,
		"lng": 74.624563,
		"category": "chastnyi",
		"child_category": "ginekologiia_roddom",
		"category_display": "Частный",
		"child_category_display": "Гинекология (роддом)",
		"is_partnerships": "Да",
		"manager": "Адилет"
	},
	{
		"name": "Эксперт",
		"address": "Улица Койбагарова, 95",
		"lat": 42.840656,
		"lng": 74.616965,
		"category": "chastnyi",
		"child_category": "ginekologiia",
		"category_display": "Частный",
		"child_category_display": "Гинекология",
		"is_partnerships": "Да",
		"manager": "Адилет"
	},
	{
		"name": "Delta Fertility Clinic",
		"address": "​Улица Карасаева 68, ​улица Матросова 15",
		"lat": 42.854226,
		"lng": 74.619268,
		"category": "chastnyi",
		"child_category": "ginekologiia",
		"category_display": "Частный",
		"child_category_display": "Гинекология",
		"is_partnerships": "Да",
		"manager": "Адилет"
	},
	{
		"name": "Лайф Клиник",
		"address": "​Улица Байтик баатыра 70, ​2 этаж, 203 кабинет",
		"lat": 42.854286,
		"lng": 74.609744,
		"category": "chastnyi",
		"child_category": "ginekologiia",
		"category_display": "Частный",
		"child_category_display": "Гинекология",
		"is_partnerships": "Да",
		"manager": "Адилет"
	},
	{
		"name": "Медицинский восстановительный центр доктора Беспалова",
		"address": "​Топографический переулок 11, 1 этаж",
		"lat": 42.850372,
		"lng": 74.611122,
		"category": "chastnyi",
		"child_category": "pediatriia",
		"category_display": "Частный",
		"child_category_display": "Педиатрия",
		"is_partnerships": "Да",
		"manager": "Адилет"
	},
	{
		"name": "А Клиник",
		"address": "Абдраимова Ишембая улица 58/2",
		"lat": 42.851555,
		"lng": 74.583309,
		"category": "chastnyi",
		"child_category": "ginekologiia",
		"category_display": "Частный",
		"child_category_display": "Гинекология",
		"is_partnerships": "Да",
		"manager": "Адилет"
	},
	{
		"name": "Генетика",
		"address": "​Улица Насирдина Исанова 1, 1 этаж",
		"lat": 42.865087,
		"lng": 74.591033,
		"category": "chastnyi",
		"child_category": "kardiologiia",
		"category_display": "Частный",
		"child_category_display": "Кардиология",
		"is_partnerships": "Да",
		"manager": "Адилет"
	},
	{
		"name": "Аман Эл",
		"address": "Улица Элебесова 276",
		"lat": 42.923386,
		"lng": 74.611776,
		"category": "chastnyi",
		"child_category": "mnogoprofilnaia",
		"category_display": "Частный",
		"child_category_display": "Многопрофильная",
		"is_partnerships": "Да",
		"manager": "Адилет"
	},
	{
		"name": "НеоКлиник",
		"address": "​Улица Медерова 67",
		"lat": 42.852041,
		"lng": 74.621024,
		"category": "chastnyi",
		"child_category": "mnogoprofilnaia",
		"category_display": "Частный",
		"child_category_display": "Многопрофильная",
		"is_partnerships": "Да",
		"manager": "Адилет"
	},
	{
		"name": "Vedanta",
		"address": "​Улица Юлиуса Фучика 34",
		"lat": 42.879346,
		"lng": 74.562219,
		"category": "chastnyi",
		"child_category": "mnogoprofilnaia",
		"category_display": "Частный",
		"child_category_display": "Многопрофильная",
		"is_partnerships": "Да",
		"manager": "Адилет"
	},
	{
		"name": "мг81",
		"address": "Бульвар Молодой Гвардии, 81",
		"lat": 42.882744,
		"lng": 74.576906,
		"category": "chastnyi",
		"child_category": "mnogoprofilnaia",
		"category_display": "Частный",
		"child_category_display": "Многопрофильная",
		"is_partnerships": "Да",
		"manager": "Адилет"
	},
	{
		"name": "гиномед",
		"address": "MedCity,​ Улица Шевченко, 6​2 этаж, 1, 3-8 кабинет",
		"lat": 42.867286,
		"lng": 74.581988,
		"category": "chastnyi",
		"child_category": "ginekologiia",
		"category_display": "Частный",
		"child_category_display": "Гинекология",
		"is_partnerships": "Да",
		"manager": "Адилет"
	},
	{
		"name": "доктор профи",
		"address": "​Проспект Чынгыза Айтматова 80, 1 этаж",
		"lat": 42.841623,
		"lng": 74.586308,
		"category": "chastnyi",
		"child_category": "ginekologiia",
		"category_display": "Частный",
		"child_category_display": "Гинекология",
		"is_partnerships": "Нет",
		"manager": "Адилет"
	},
	{
		"name": "институт материства",
		"address": "Проспект Шабдан Баатыра 7к, Учкун м-н",
		"lat": 42.872105,
		"lng": 74.692193,
		"category": "chastnyi",
		"child_category": "ginekologiia",
		"category_display": "Частный",
		"child_category_display": "Гинекология",
		"is_partnerships": "Нет",
		"manager": "Адилет"
	},
	{
		"name": "малыш",
		"address": "​Туголбай Ата улица 67",
		"lat": 42.864334,
		"lng": 74.609316,
		"category": "chastnyi",
		"child_category": "pediatriia",
		"category_display": "Частный",
		"child_category_display": "Педиатрия",
		"is_partnerships": "Нет",
		"manager": "Адилет"
	},
	{
		"name": "Senna Med",
		"address": "​Улица Садырбаева 369",
		"lat": 42.821079,
		"lng": 74.562889,
		"category": "chastnyi",
		"child_category": "mnogoprofilnaia",
		"category_display": "Частный",
		"child_category_display": "Многопрофильная",
		"is_partnerships": "Нет",
		"manager": "Адилет"
	},
	{
		"name": "Нова клиник",
		"address": "Улица Абдумомунова 244",
		"lat": 42.880083,
		"lng": 74.593869,
		"category": "chastnyi",
		"child_category": "mnogoprofilnaia",
		"category_display": "Частный",
		"child_category_display": "Многопрофильная",
		"is_partnerships": "Да",
		"manager": "Умут"
	},
	{
		"name": "Банур",
		"address": "​Улица Суеркулова 16/1, ​3-й микрорайон 16/1",
		"lat": 42.839525,
		"lng": 74.615812,
		"category": "chastnyi",
		"child_category": "mammologiia",
		"category_display": "Частный",
		"child_category_display": "Маммология",
		"is_partnerships": "Да",
		"manager": "Умут"
	},
	{
		"name": "Клиника 21",
		"address": "Улица Скрябина, 50а",
		"lat": 42.850087,
		"lng": 74.621943,
		"category": "chastnyi",
		"child_category": "mnogoprofilnaia",
		"category_display": "Частный",
		"child_category_display": "Многопрофильная",
		"is_partnerships": "Да",
		"manager": "Умут"
	},
	{
		"name": "Прайм клиник",
		"address": "Улица Жоомарта Боконбаева, 202",
		"lat": 42.867891,
		"lng": 74.580307,
		"category": "chastnyi",
		"child_category": "ginekologiia",
		"category_display": "Частный",
		"child_category_display": "Гинекология",
		"is_partnerships": "Да",
		"manager": "Умут"
	},
	{
		"name": "MediPlus",
		"address": "​Аалы Токомбаева улица, 45/1, 1 этаж",
		"lat": 42.828065,
		"lng": 74.610449,
		"category": "chastnyi",
		"child_category": "mnogoprofilnaia",
		"category_display": "Частный",
		"child_category_display": "Многопрофильная",
		"is_partnerships": "Да",
		"manager": "Индира"
	},
	{
		"name": "Меди лтд",
		"address": "Улица Суеркулова, 5/3",
		"lat": 42.838056,
		"lng": 74.602937,
		"category": "chastnyi",
		"child_category": "mnogoprofilnaia",
		"category_display": "Частный",
		"child_category_display": "Многопрофильная",
		"is_partnerships": "Да",
		"manager": "Индира"
	},
	{
		"name": "МЦ Стимул",
		"address": "Чалдоварская улица, 91в",
		"lat": 42.836884,
		"lng": 74.609761,
		"category": "chastnyi",
		"child_category": "nevrologiia",
		"category_display": "Частный",
		"child_category_display": "Неврология",
		"is_partnerships": "Да",
		"manager": "Рахат"
	},
	{
		"name": "К Мед",
		"address": "​Улица Гагарина, 1, 2 этаж",
		"lat": 42.852092,
		"lng": 74.581152,
		"category": "chastnyi",
		"child_category": "urologiia",
		"category_display": "Частный",
		"child_category_display": "Урология",
		"is_partnerships": "Нет",
		"manager": "Рахат"
	},
	{
		"name": "Фамедикал",
		"address": "Улица Байтик баатыра, 4/1",
		"lat": 42.835542,
		"lng": 74.607438,
		"category": "chastnyi",
		"child_category": "ginekologiia",
		"category_display": "Частный",
		"child_category_display": "Гинекология",
		"is_partnerships": "Да",
		"manager": "Рахат"
	},
	{
		"name": "МЦ Бекбоева",
		"address": "Астраханская улица 23",
		"lat": 42.87142,
		"lng": 74.507651,
		"category": "chastnyi",
		"child_category": "kardiologiia",
		"category_display": "Частный",
		"child_category_display": "Кардиология",
		"is_partnerships": "Да",
		"manager": "Алтынбек"
	},
	{
		"name": "Бест клиник",
		"address": "​Киевская улица 39,​ 1 этаж",
		"lat": 42.874519,
		"lng": 74.613126,
		"category": "chastnyi",
		"child_category": "ginekologiia",
		"category_display": "Частный",
		"child_category_display": "Гинекология",
		"is_partnerships": "Да",
		"manager": "Алтынбек"
	},
	{
		"name": "Плаза клиник",
		"address": "​Улица Исы Ахунбаева 187, ​3-4 этаж",
		"lat": 42.843781,
		"lng": 74.581652,
		"category": "chastnyi",
		"child_category": "pediatriia",
		"category_display": "Частный",
		"child_category_display": "Педиатрия",
		"is_partnerships": "Заборный пункт",
		"manager": "Алтынбек"
	},
	{
		"name": "Умай мед",
		"address": "Улица Панфилова, 188/2",
		"lat": 42.882538,
		"lng": 74.60035,
		"category": "chastnyi",
		"child_category": "ginekologiia",
		"category_display": "Частный",
		"child_category_display": "Гинекология",
		"is_partnerships": "Да",
		"manager": "Алтынбек"
	},
	{
		"name": "Умай (Ультра мед)",
		"address": "​Улица Исы Ахунбаева 129, 1 этаж",
		"lat": 42.843452,
		"lng": 74.597028,
		"category": "chastnyi",
		"child_category": "ginekologiia",
		"category_display": "Частный",
		"child_category_display": "Гинекология",
		"is_partnerships": "Да",
		"manager": "Алтынбек"
	},
	{
		"name": "ПрП Медси , Логвиненко 8/2",
		"address": "​Улица Якова Логвиненко, 8/2, 1 этаж",
		"lat": 42.86536,
		"lng": 74.5971,
		"category": "chastnyi",
		"child_category": "urologiia",
		"category_display": "Частный",
		"child_category_display": "Урология",
		"is_partnerships": "Да",
		"manager": "Айнура"
	},
	{
		"name": "ПрП Ай клиник , Логвиненко 8/2",
		"address": "​Улица Якова Логвиненко, 8/2, 1 этаж",
		"lat": 42.864939,
		"lng": 74.597167,
		"category": "chastnyi",
		"child_category": "mnogoprofilnaia",
		"category_display": "Частный",
		"child_category_display": "Многопрофильная",
		"is_partnerships": "Да",
		"manager": "Айнура"
	},
	{
		"name": "ПрП  Чипенко, Элебаева 63",
		"address": "Улица Мукая Элебаева 63",
		"lat": 42.857242,
		"lng": 74.612796,
		"category": "chastnyi",
		"child_category": "pediatriia",
		"category_display": "Частный",
		"child_category_display": "Педиатрия",
		"is_partnerships": "Да",
		"manager": "Айнура"
	},
	{
		"name": "ПрП  Бурханова , Юнусалиева 88",
		"address": "​Улица Юнусалиева, 88, 1 этаж",
		"lat": 42.847675,
		"lng": 74.623383,
		"category": "chastnyi",
		"child_category": "pediatriia",
		"category_display": "Частный",
		"child_category_display": "Педиатрия",
		"is_partnerships": "Да",
		"manager": "Айнура"
	},
	{
		"name": "ПрП  Нейро арт, Ахунбаева 190/1",
		"address": "​Улица Исы Ахунбаева, 190/1, 1 этаж",
		"lat": 42.843343,
		"lng": 74.572438,
		"category": "chastnyi",
		"child_category": "pediatriia",
		"category_display": "Частный",
		"child_category_display": "Педиатрия",
		"is_partnerships": "Да",
		"manager": "Айнура"
	},
	{
		"name": "Аист",
		"address": "​Улица Касыма Тыныстанова 20а",
		"lat": 42.84453,
		"lng": 74.605068,
		"category": "chastnyi",
		"child_category": "ginekologiia",
		"category_display": "Частный",
		"child_category_display": "Гинекология",
		"is_partnerships": "Да",
		"manager": "Жантай"
	},
	{
		"name": "Лик",
		"address": "​Улица Табышалиева 34, 1 этаж",
		"lat": 42.870726,
		"lng": 74.585887,
		"category": "chastnyi",
		"child_category": "revmatologiia",
		"category_display": "Частный",
		"child_category_display": "Ревматология",
		"is_partnerships": "Да",
		"manager": "Жантай"
	},
	{
		"name": "Эрмин",
		"address": "​Бульвар Молодой Гвардии 124/1, 1 этаж",
		"lat": 42.921108,
		"lng": 74.572238,
		"category": "chastnyi",
		"child_category": "mnogoprofilnaia",
		"category_display": "Частный",
		"child_category_display": "Многопрофильная",
		"is_partnerships": "Да",
		"manager": "Жантай"
	},
	{
		"name": "Family med",
		"address": "Улица Исы Ахунбаева 95",
		"lat": 42.842664,
		"lng": 74.615789,
		"category": "chastnyi",
		"child_category": "mnogoprofilnaia",
		"category_display": "Частный",
		"child_category_display": "Многопрофильная",
		"is_partnerships": "Да",
		"manager": "Жантай"
	},
	{
		"name": "Мир здоровья(луиза)",
		"address": "​Проспект Жибек-Жолу 179, 1 этаж",
		"lat": 42.888681,
		"lng": 74.640055,
		"category": "chastnyi",
		"child_category": "pediatriia",
		"category_display": "Частный",
		"child_category_display": "Педиатрия",
		"is_partnerships": "Да",
		"manager": "Жантай"
	},
	{
		"name": "Санос",
		"address": "​Улица Ибраимова 29а​, 1 этаж",
		"lat": 42.86556,
		"lng": 74.61768,
		"category": "chastnyi",
		"child_category": "ginekologiia",
		"category_display": "Частный",
		"child_category_display": "Гинекология",
		"is_partnerships": "Да",
		"manager": "Жантай"
	},
	{
		"name": "Раимжанова",
		"address": "​Загорская улица 4​, цокольный этаж",
		"lat": 42.879372,
		"lng": 74.685175,
		"category": "chastnyi",
		"child_category": "mnogoprofilnaia",
		"category_display": "Частный",
		"child_category_display": "Многопрофильная",
		"is_partnerships": "Да",
		"manager": "Жантай"
	},
	{
		"name": "ПрП Шарапова",
		"address": "​БЦ Береке, Проспект Чуй, 230​, напротив 1 поликлиники, 1 этаж",
		"lat": 42.877021,
		"lng": 74.563169,
		"category": "chastnyi",
		"child_category": "ginekologiia",
		"category_display": "Частный",
		"child_category_display": "Гинекология",
		"is_partnerships": "Да",
		"manager": "Алия"
	},
	{
		"name": "ЗП Сагынбек Дордой",
		"address": "Улица Аул, 6а/2",
		"lat": 42.927999,
		"lng": 74.61836,
		"category": "chastnyi",
		"child_category": "zp",
		"category_display": "Частный",
		"child_category_display": "ЗП",
		"is_partnerships": "Да",
		"manager": "Алия"
	},
	{
		"name": "Эйва",
		"address": "Улица Кырман, 38/1",
		"lat": 42.813086,
		"lng": 74.577288,
		"category": "chastnyi",
		"child_category": "roddom",
		"category_display": "Частный",
		"child_category_display": "Роддом",
		"is_partnerships": "Да",
		"manager": "Белек"
	},
	{
		"name": "Гармония",
		"address": "Улица Токтогула, 216",
		"lat": 42.872876,
		"lng": 74.581943,
		"category": "chastnyi",
		"child_category": "ginekologiia",
		"category_display": "Частный",
		"child_category_display": "Гинекология",
		"is_partnerships": "Да",
		"manager": "Белек"
	},
	{
		"name": "ЮРФА",
		"address": "​Улица Токтогула, 135",
		"lat": 42.872697,
		"lng": 74.593734,
		"category": "chastnyi",
		"child_category": "mnogoprofilnaia",
		"category_display": "Частный",
		"child_category_display": "Многопрофильная",
		"is_partnerships": "",
		"manager": "Белек"
	},
	{
		"name": "МЦ Поликлиника",
		"address": "Улица Куренкеева, 115",
		"lat": 42.88985,
		"lng": 74.610724,
		"category": "chastnyi",
		"child_category": "stomatologiia",
		"category_display": "Частный",
		"child_category_display": "Стоматология",
		"is_partnerships": "Да",
		"manager": "Белек"
	},
	{
		"name": "Amanat Hospital",
		"address": "​Улица Турусбекова, 88/1",
		"lat": 42.877692,
		"lng": 74.584753,
		"category": "chastnyi",
		"child_category": "mnogoprofilnaia",
		"category_display": "Частный",
		"child_category_display": "Многопрофильная",
		"is_partnerships": "Только медосмотры",
		"manager": "Белек"
	}
]
